[
    {
        "id": 1,
        "name": "Corbett's Glen Nature Park",
        "location": "Brighton, NY",
        "address": "125 Glen Rd Rochester, NY 14610",
        "difficulty": "Easy",
        "distance": "2.1 mi",
        "hours": "8:00 AM - 10:00 PM",
        "description": "A quiet walk through a tunnel and along a stream.",
        "img": "assets/images/corbetts_glen.jpg",
        "smallimg": "assets/images/corbetts_glen_small.jpg"
    },
    {
        "id": 2,
        "name": "Channing H. Philbrick Park",
        "location": "Penfield, NY",
        "address": "1 Linear Park Dr Penfield, NY 14526",
        "difficulty": "Easy",
        "distance": "2.5 mi",
        "hours": "6:00 AM - 10:00 PM",
        "description": "A fairly flat trail following a stream.",
        "img": "assets/images/channing_philbrick.jpg",
        "smallimg": "assets/images/channing_philbrick_small.jpg"
    },
    {
        "id": 3,
        "name": "Turning Point Park",
        "location": "Rochester, NY",
        "address": "260 Boxart St Rochester, NY 14612",
        "difficulty": "Moderate",
        "distance": "5.2 mi",
        "hours": "9:00 AM - 9:00 PM",
        "description": "Path following the Genesee River north to Lake Ontario.",
        "img": "assets/images/turning_point.jpg",
        "smallimg": "assets/images/turning_point_small.jpg"
    },
    {
        "id": 4,
        "name": "Lehigh Valley Trail",
        "location": "Victor NY, Henrietta NY",
        "address": "Expansive",
        "difficulty": "Moderate",
        "distance": "0-32.6 mi",
        "hours": "Anytime, preferrably daytime",
        "description": "Choose your own adventure; this trail spans quite far. Begin anywhere and travel as far as you desire.",
        "img": "assets/images/lehigh_valley.webp",
        "smallimg": "assets/images/lehigh_valley.webp"
    },
    {
        "id": 5,
        "name": "Webster Arboretum",
        "location": "Webster, NY",
        "address": "1700 Schlegel Rd, Webster, NY 14580",
        "difficulty": "Easy",
        "distance": "0.6 mi",
        "hours": "8:00 AM - 9:00 PM",
        "description": "A popular location for photos in the summertime.",
        "img": "assets/images/webster_arbor.jpg",
        "smallimg": "assets/images/webster_arbor_small.jpg"
    },
    {
        "id": 6,
        "name": "Tinker Nature Park",
        "location": "Pittsford, NY",
        "address": "1525 Calkins Rd Pittsford, NY 14534",
        "difficulty": "Easy",
        "distance": "1.2 mi",
        "hours": "7:00 AM - 8:00 PM",
        "description": "Short, easy trail that loops and passes a pond.",
        "img": "assets/images/tinker.jpg",
        "smallimg": "assets/images/tinker_small.jpg"
    },
    {
        "id": 7,
        "name": "Lock 32 Canal Park",
        "location": "Pittsford, NY",
        "address": "Erie Canal Heritage Trl Pittsford, NY 14534",
        "difficulty": "Easy",
        "distance": "Varies",
        "hours": "Anytime, preferrably daytime",
        "description": "Pass an still operational lock as you walk along the canal.",
        "img": "assets/images/lock_32.webp",
        "smallimg": "assets/images/lock_32.webp"
    },
    {
        "id": 8,
        "name": "Mendon Ponds County Park",
        "location": "Honeoye Falls, NY",
        "address": "95 Douglas Rd, Honeoye Falls, NY 14472",
        "difficulty": "Easy - Moderate",
        "distance": "1.1 mi",
        "hours": "6:00 AM - 11:00 PM",
        "description": "A popular location with a variety of trails to explore.",
        "img": "assets/images/mendon_ponds.jpg",
        "smallimg": "assets/images/mendon_ponds_small.jpg"
    },
    {
        "id": 9,
        "name": "Cobbs Hill Park",
        "location": "Rochester, NY",
        "address": "1550 Highland Ave Rochester, NY 14610",
        "difficulty": "Moderate",
        "distance": "1.6 mi",
        "hours": "6:00 AM - 9:00 PM",
        "description": "Circle the reservoir in Rochester.",
        "img": "assets/images/cobbs_hill.jpg",
        "smallimg": "assets/images/cobbs_hill_small.jpg"
    },
    {
        "id": 10,
        "name": "Genesee Riverway Trail",
        "location": "Rochester, NY",
        "address": "Ford Street And Mt Hope Rochester, NY 14620",
        "difficulty": "Easy",
        "distance": "6.9 mi",
        "hours": "Anytime, preferrably daytime",
        "description": "Travel along the Genesee river on a well-maintained path toward downtown Rochester.",
        "img": "assets/images/genesee_riverway.jpg",
        "smallimg": "assets/images/genesee_riverway_small.jpg"
    }
]